[
{"name":"Club CLAPPER","type":"livehouse","url":"http://clapper.jp/","twitter":"","lat":34.671933,"lng":135.499041,"address":"大阪市中央区西心斎橋2丁目10-34 心斎橋ウエスト363ビルB1F","tel":"06-6213-6331"},
{"name":"心斎橋HOKAGE","type":"livehouse","url":"http://www.kaguraenterprise.jp/hokage/","twitter":"HOKAGE012","lat":34.671031,"lng":135.499177,"address":"大阪市中央区西心斎橋2-9-36 カサドマートビルB1F/B2F","tel":"06-6211-2855"},
{"name":"心斎橋KINGCOBRA","type":"livehouse","url":"http://king-cobra.net/","twitter":"kingcobra_osaka","lat":34.671973,"lng":135.497633,"address":"大阪市中央区西心斎橋2丁目18-7 3F","tel":"06-6211-2875"},
{"name":"サンホール","type":"livehouse","url":"http://www.sunhall.com/","twitter":"sun_hall","lat":34.670887,"lng":135.498441,"address":"大阪市中央区西心斎橋2丁目9-28 サンボウルビルB2F","tel":"06-6213-2954"},
{"name":"心斎橋FANJ","type":"livehouse","url":"http://www.s-fanj.com/","twitter":"FANJ_osaka","lat":34.673382,"lng":135.504931,"address":"大阪市中央区東心斎橋1-7-3　島之内シティーハイツ1F","tel":"06-6120-6800"},
{"name":"FANJtwice","type":"livehouse","url":"http://www.fanj-twice.com/","twitter":"FANJtwice","lat":34.672611,"lng":135.501539,"address":"大阪市中央区西心斎橋2丁目18-10 ","tel":"06-6484-3880"},
{"name":"CLUB PURE","type":"club","url":"http://osaka.clubpure.com/","twitter":"pure_osaka","lat":34.67156,"lng":135.497561,"address":"大阪市中央区心斎橋筋2丁目3-12 ダイヤモンドビルB1F","tel":"06-6214-6600"},
{"name":"club STOMP","type":"livehouse","url":"http://club-stomp.com/","twitter":"clubSTOMP","lat":34.67433,"lng":135.504204,"address":"大阪市中央区東心斎橋1丁目13-32 TAKARAビルB1F","tel":"06-6245-0889"},
{"name":"unagidani sunsui","type":"livehouse","url":"http://www.sunsui.net/","twitter":"unagidanisunsui","lat":34.674644,"lng":135.503837,"address":"大阪市中央区東心斎橋1-12-20 心斎橋シキシマビル B1F","tel":"06-6243-3641"},
{"name":"joule","type":"club","url":"http://club-joule.jp/venue/","twitter":"joule_osaka","lat":34.671609,"lng":135.498022,"address":"大阪市中央区西心斎橋2-11-7 南炭屋町ビル2.3.4F","tel":"06-6214-1223"},
{"name":"OSAKA RUIDO","type":"livehouse","url":"http://www.ruido.org/osaka/","twitter":"osakaruido","lat":34.676945,"lng":135.501198,"address":"大阪市中央区南船場3丁目10-11 D plus 心斎橋 B1","tel":"06-6252-8301"},
{"name":"MUSIC BAR SINKAGURA","type":"livehouse","url":"http://www.worldwideproject.jp/sinkagura/","twitter":"wwp_sinkagura","lat":34.671031,"lng":135.499177,"address":"大阪市中央区西心斎橋2-9-36 カサドマートビル4F/5F","tel":"06-6212-6225"},
{"name":"CLUB DROP","type":"livehouse","url":"http://www.clubdrop.jp/","twitter":"clubdrop","lat":34.671951,"lng":135.497571,"address":"大阪市中央区西心斎橋2-18-9 itビルB1F","tel":"06-6213-9101"},
{"name":"AtlantiQs","type":"livehouse","url":"http://atlantiqs.com/","twitter":"AtlantiQs0512","lat":34.673124,"lng":135.498046,"address":"大阪市中央区西心斎橋1丁目8-16 中西ビルB1F","tel":"06-6251-0300"},
{"name":"難波BEARS","type":"livehouse","url":"http://home.att.ne.jp/orange/bears/","twitter":"namba_bears","lat":34.665022,"lng":135.491139,"address":"大阪市浪速区難波中３－１４－５　新日本難波ビルB1","tel":"06-6649-5564"},
{"name":"難波ROCKETS","type":"livehouse","url":"http://www.namba-rockets.com/","twitter":"namba_ROCKETS","lat":34.659574,"lng":135.502684,"address":"大阪市浪速区難波中2-11-1 なんばピア6025","tel":"06-6649-3919"},
{"name":"artyard","type":"livehouse","url":"http://www.artyard.jp/artyardstudio","twitter":"artyardstudio","lat":34.659791,"lng":135.502633,"address":"大阪市浪速区元町１丁目２-２5 A.I.R.1963ビル 4F-A","tel":"06-6585-7212"},
{"name":"千日前アナザードリーム","type":"livehouse","url":"http://www.an-dream.com/","twitter":"","lat":34.667523,"lng":135.503955,"address":"大阪市中央区千日前1-9-7　フローラルイン難波B1","tel":"06-6211-5759"},
{"name":"Namba Mele","type":"livehouse","url":"http://namba-mele.com/","twitter":"namba_mele","lat":34.666958,"lng":135.497024,"address":"大阪市浪速区元町1-2-2浪芳ビルB1F","tel":"06-6634-1539"},
{"name":"Pangea","type":"livehouse","url":"http://livepangea.com/","twitter":"","lat":34.671719,"lng":135.498934,"address":"大阪市中央区西心斎橋2-10-34 心斎橋ウエスト363ビル1F","tel":"06-4708-0061"}
]